[{"title":"Mr. Caverley's Slow Minuet - A New Dance for a Girl  Writt by Mr.Pemberton (1729)","latitude":"48.225179","longitude":"16.360573","body":"Mr. Caverley's Slow Minuet - A New Dance for a Girl Writt by Mr. Pemberton (1729)\nWelche junge Dame auch immer dieses Solomenuett einst im Ballsaal pr\u00e4sentiert haben mag - sicherlich hat sie sich einige Stunden darauf vorbereitet: Dieser Tanz treibt durch eine Vielfalt an...","field_date":"Apr 22 2017 to Apr 23 2017"},{"title":"1717 - Eine Tanzstunde beim Rechtschaffenen Tanzmeister","latitude":"48.190676","longitude":"14.010721","body":"1717 - Eine Tanzstunde beim Rechtschaffenen Tanzmeister\nGottfried Tauberts gr\u00fcndliche Erkl\u00e4rungen der franz\u00f6sischen Tanzkunst, dargelegt im \u201eRechtschaffenen Tanzmeister\u201c (Leipzig, 1717), verweisen auf die wahre Sch\u00f6nheit und Kunst des Menuett-...","field_date":"Feb 17 2017 to Feb 19 2017"},{"title":"* T\u00e4nze der Mozart-Zeit * Contredanses: Quadrillen und Anglaisen","latitude":"47.266733","longitude":"11.392034","body":"\"Wir tanzten 3 Contredanses und 1 neuer Quadrille, es war sehr lustig\", so schrieb 1775 ein junger Salzburger Hofrat und Freund der Mozarts in sein Tagebuch. \nDie\u00a0Beliebtheit dieser T\u00e4nze war so gro\u00df, dass immer wieder neue Formen entstanden und durch Sammler...","field_date":"Mar 18 2017 to Mar 19 2017"},{"title":"Mittelalter Musik und Tanzkurs \/ Stage de Musiques et Danses M\u00e9di\u00e9vales","latitude":"46.838150","longitude":"12.844470","body":"Dans un cadre de r\u00eave\/In einer Traumgegen\/In a lovely location in the mountains :Stage de Musiques et Danses M\u00e9di\u00e9vales du 23 au 25 Juillet 2017 au Tirol autrichien \u00e0 Iselsberg.Medieval Music and Dance Workshop in Iselsberg, Tyrol, July 23-25. 2017Mittelalter Musik un Tanzkurs 23-25...","field_date":"Jul 23 2017 to Jul 27 2017"},{"title":"Academia della Danza 2017","latitude":"48.213871","longitude":"15.387791","body":"Seit 2007 schon findet j\u00e4hrlich ein gro\u00dfer Renaissanceball statt, zu dem vor allem, aber nicht nur, Mitglieder des internationalen Mittelaltervereins SCA kommen, um gemeinsam zu lernen und zu tanzen. Das \u201eKingdom of Drachenwald\u201c ist der europ\u00e4ische Ableger der SCA. Dieses Jahr findet diese...","field_date":"Sep 21 2017 to Sep 24 2017"},{"title":"\"Musica, Mare, Maschere!\" - 12. zeitenTANZ-Sommerseminar f\u00fcr Barocktanz","latitude":"48.035940","longitude":"14.653780","body":"Eine Reise nach Venedig steht dieses Jahr auf dem Programm unseres Sommerseminars. Meer und Maskenspiel bestimmen die T\u00e4nze unserer Kurse. Beim abschlie\u00dfenden Ballabend am Samstag (12.8.) mischen sich Seeleute aus aller Herren L\u00e4nder, abenteuerlustige Reisende und K\u00fcnstler unter die Bewohner des...","field_date":"Aug 6 2017 to Aug 13 2017"},{"title":"Barocktanztraining - Anf\u00e4nger bis Fortgeschrittene","latitude":"48.201387","longitude":"16.349079","body":"Barocktanz f\u00fcr Anf\u00e4nger - Erlernen des barocken Schrittrepertoires und Port de Bras (mit und ohne Vorkenntnisse) sowie einfacher Choreographien,\njeweils Donnerstag von 17:30 bis 18:45\n\u00a0\nBarocktanz-Training, Schrittrepertoire und Port de Bras f\u00fcr...","field_date":"Mar 2 2017 to May 18 2017"},{"title":"Passacaille d'Armide","latitude":"48.315893","longitude":"13.630215","body":"Die Passacaille d\u2019Armide in der Solofassung\nIn diesem Sommerkurs wollen wir uns der ber\u00fchmten Solo-Passacaille des barocken Tanzrepertoires zuwenden: der Passacaille d\u2019Armide aus der gleichnamigen Oper von Jean Baptiste Lully. Gleich drei originale...","field_date":"Jul 30 2017 to Aug 6 2017"},{"title":"Winter Ball 1873","latitude":"51.103116","longitude":"4.271259","body":"The Winter Ball at Castle d\u2019Ursel is a fine tradition. On Saturday 25 November 2017 we are welcoming you again, with flickering candles on the drive, drinks and refreshments in the mirrored room and of course an extensive programme of dances in the hall. This year's theme will be 1873.\nIn...","field_date":"Nov 25 2017"},{"title":" Baroque dance workshop with Robert Le Nuz","latitude":"50.075629","longitude":"14.437947","body":"Historical dance workshop will focuse on reconstruction of Sarabande d'Iss\u00e9, theatrical dance for a couple (man and woman). Among different versions of this choreography of sarabande \u00e0 deux, extract from Iss\u00e9 by Destouches, we have chosen to work on the choreography created by Mr. P\u00e9cour and...","field_date":"Feb 16 2017 to Feb 19 2017"},{"title":"La Pazzia Senile - madrigal comedy by Adriano Banchieri","latitude":"55.676097","longitude":"12.568337","body":"LA PAZZIA SENILEby\u00a0Adriano Banchieri\nLa Pazzia Senile is the first in a series of madrigal comedies that Banchieri wrote throughout his career. Ensemble Serikon performs the earliest version, published in 1598.\nIn La Pazzia Senile, as in most madrigal...","field_date":"Nov 1 2017"},{"title":"7. International Dance Summer School - European and American Ballroom Dances from the Period 1800-1900","latitude":"55.523087","longitude":"9.710084","body":"European and American Ballroom Dances from the period 1800-1900, Course, Th\u00e9-Dansant and Ball - further at: http:\/\/www.snoghoj.dk\/CustomerData\/Files\/Folders\/10-pdf\/1993_baldanse-englesk.pdf...","field_date":"Aug 6 2017 to Aug 12 2017"},{"title":"\"La f\u00eate secr\u00e8te\" - Spectacle et bal Renaissance au Clos Luc\u00e9","latitude":"47.410190","longitude":"0.992287","body":"1515 : L\u00e9onard de Vinci arrive en France au Clos Luc\u00e9, \u00e0 Amboise,\u00a0o\u00f9 le \u00ab premier peintre, architecte et ing\u00e9nieur \u00bb de Fran\u00e7ois Ier y vivra et y travailera jusqu'en 1519.\u00a0\nLe Ch\u00e2teau du Clos Luc\u00e9 a confi\u00e9 au metteur en sc\u00e8ne Didier Girauldon une cr\u00e9ation th\u00e9\u00e2trale in\u00e9dite \u00ab la f\u00eate...","field_date":"Jul 21 2017, Aug 4 2017, Aug 11 2017"},{"title":"\"La f\u00eate secr\u00e8te\" - Spectacle et bal Renaissance au Clos Luc\u00e9","latitude":"47.410190","longitude":"0.992287","body":"1515 : L\u00e9onard de Vinci arrive en France au Clos Luc\u00e9, \u00e0 Amboise,\u00a0o\u00f9 le \u00ab premier peintre, architecte et ing\u00e9nieur \u00bb de Fran\u00e7ois Ier y vivra et y travailera jusqu'en 1519.\u00a0\nLe Ch\u00e2teau du Clos Luc\u00e9 a confi\u00e9 au metteur en sc\u00e8ne Didier Girauldon une cr\u00e9ation th\u00e9\u00e2trale in\u00e9dite \u00ab la f\u00eate...","field_date":"Jul 21 2017, Aug 4 2017, Aug 11 2017"},{"title":"\"La f\u00eate secr\u00e8te\" - Spectacle et bal Renaissance au Clos Luc\u00e9","latitude":"47.410190","longitude":"0.992287","body":"1515 : L\u00e9onard de Vinci arrive en France au Clos Luc\u00e9, \u00e0 Amboise,\u00a0o\u00f9 le \u00ab premier peintre, architecte et ing\u00e9nieur \u00bb de Fran\u00e7ois Ier y vivra et y travailera jusqu'en 1519.\u00a0\nLe Ch\u00e2teau du Clos Luc\u00e9 a confi\u00e9 au metteur en sc\u00e8ne Didier Girauldon une cr\u00e9ation th\u00e9\u00e2trale in\u00e9dite \u00ab la f\u00eate...","field_date":"Jul 21 2017, Aug 4 2017, Aug 11 2017"},{"title":"Third Historical Dances Summer School in Normandy 2017","latitude":"48.432856","longitude":"0.091266","body":"Four repertoires : \nFigure dances, from the Italian tradition to the English one (16th and 17th century)Baroque danceJane Austen\u2019s and Regency danceDanse 1er Empire\u00a0\nWith four different repertoires and two instructors (C\u00e9cile Laye and Ir\u00e8ne...","field_date":"Jul 30 2017 to Aug 4 2017"},{"title":"Stage de danse baroque ","latitude":"47.798291","longitude":"3.574404","body":"L'Association Iss\u00e9 propose, le samedi 29 avril et le dimanche 30 avril 2017,\u00a0un stage de danse baroque, tous niveaux, men\u00e9 par Nick Nguyen. Le stage comprend un cours de technique sur la forme et le style des pas le matin et un travail sur le r\u00e9pertoire l'apr\u00e8s-midi.\nHoraires : De 10 h 30...","field_date":"Apr 29 2017 to Apr 30 2017"},{"title":"Un Soir qu\u2019Amour\u2026 Stage de danses anciennes, fl\u00fbte et tambour et escrime","latitude":"47.798291","longitude":"3.574404","body":"Un Soir qu\u2019Amour\u2026\nStage de danses anciennes, fl\u00fbte et tambour et escrime du 5 au 13 ao\u00fbt 2017 \u00e0 Auxerre\n\u00a0\n\u00a0\u00a0\u00a0\u00a0\u00a0\u00a0\u00a0\u00a0\u00a0\u00a0\u00a0 La danse est l\u2019expression muette de la s\u00e9duction\u00a0: elle est l\u2019Art de tout dire avec le corps.\n\u00a0\u00a0\u00a0\u00a0\u00a0\u00a0\u00a0\u00a0\u00a0\u00a0\u00a0\u00a0\u00a0\u00a0 Le stage de danse 2017 sera plac\u00e9 sous le signe de l\u2019...","field_date":"Aug 5 2017 to Aug 13 2017"},{"title":"Stage de danse baroque \u00e0 Auxerre (Nick Nguyen)","latitude":"47.795037","longitude":"3.572572","body":"L\u2019Association Iss\u00e9 propose un stage de danse baroque, tous niveaux, men\u00e9 par Nick Nguyen. Le stage comprend un cours de technique sur la forme et le style des pas de base le matin et un travail \u00e0 partir du r\u00e9pertoire l\u2019apr\u00e8s-midi. Date : Samedi 25 et dimanche 26 f\u00e9vrier 2017 Horaires : 10 h 30 \u00e0...","field_date":"Feb 25 2017 to Feb 26 2017"},{"title":"Stage de danse renaissance fran\u00e7aise et italienne ","latitude":"47.795037","longitude":"3.572572","body":"\u201c\u00a0La danse est une esp\u00e8ce de r\u00e9thorique muette, par laquelle l\u2019orateur peut, par ses mouvements, sans parler un seul mot, se faire entendre et persuader les spectateurs qu\u2019il est gaillard digne d\u2019\u00eatre lou\u00e9, aym\u00e9 et ch\u00e9ri\u2026\u00a0\u201d (Thoinot Arbeau, Orch\u00e9sographie, Langres 1588 ). Du XVe si\u00e8cle...","field_date":"Mar 25 2017 to Mar 26 2017"},{"title":"Stage de danse renaissance fran\u00e7aise et italienne ","latitude":"47.795037","longitude":"3.572572","body":"\u201c\u00a0La danse est une esp\u00e8ce de r\u00e9thorique muette, par laquelle l\u2019orateur peut, par ses mouvements, sans parler un seul mot, se faire entendre et persuader les spectateurs qu\u2019il est gaillard digne d\u2019\u00eatre lou\u00e9, aym\u00e9 et ch\u00e9ri\u2026\u00a0\u201d (Thoinot Arbeau, Orch\u00e9sographie, Langres 1588 ). Du XVe si\u00e8cle...","field_date":"May 13 2017 to May 14 2017"},{"title":"Stage de Danse m\u00e9di\u00e9vale","latitude":"49.276186","longitude":"-0.697770","body":"D\u00e9couvrir les diff\u00e9rents types de danses dans leur contexte historique : danses courtoises, religieuses, populaires, bourgeoises et jongleresses. Prendre conscience de la fonction de la danse dans la soci\u00e9t\u00e9 f\u00e9odale. Apprendre un r\u00e9pertoire de danses anciennes pour l\u2019utiliser dans un contexte...","field_date":"Jul 14 2017 to Jul 16 2017"},{"title":"la Belle \u00e9poque \u00e0 Cabourg ","latitude":"49.287981","longitude":"-0.116292","body":"la Belle \u00e9poque\u00a0 \u00e0 Cabourg ,\u00a0 en Normandy\u00a0 (a\u00a0 2h from Paris ,\u00a0 FRANCE)\nanimations 1900 dans les rues , danses , d\u00e9fil\u00e9 en costume , gouter au Grand Hotel , ball, bains de mer comme \u00e0 l'\u00e9poque\nouvert \u00e0 tous,\n\"\u00e0 l'ombre des jeunes filles en fleurs \"\n\"a la recherche du...","field_date":"Jul 7 2017 to Jul 9 2017"},{"title":"13e Acad\u00e9mie Internationale de la Compagnie Outre Mesure","latitude":"46.465972","longitude":"-0.806500","body":"Initiative de la Compagnie Outre Mesure, la 13e Acad\u00e9mie Internationale de la Compagnie Outre Mesure consacr\u00e9e \u00e0 l\u2019art m\u00e9n\u00e9trier, aux arts ing\u00e9nieux et aux r\u00e9pertoires de chants, instruments, danses, th\u00e9\u00e2tres, d\u00e9clamations & autres litt\u00e9ratures des XVe au XVIIIe si\u00e8cles ambitionne d\u2019aboutir...","field_date":"Oct 21 2017 to Oct 28 2017"},{"title":"Third Historical Dances Summer School in Normandy 2017","latitude":"48.475759","longitude":"-0.143350","body":"Chestnut and Fantaisies Baroques welcome you from 2017, July 30 to August 4, to their third summer school of period dances in Normandy.\u00a0Les compagnies Chestnut et Fantaisies Baroques vous proposent leur 3\u00e8me Stage d'\u00e9t\u00e9 de danse historique au Tapis Vert.\u00a0Avec 4...","field_date":"Jul 30 2017 to Aug 4 2017"},{"title":"Bal Renaissance au Chateau de Montmirail","latitude":"48.102703","longitude":"0.789691","body":"Le bal de Versailles pr\u00e9sente\n\u00a0\nBal Renaissance au Ch\u00e2teau de Montmirail\n\u00a0\nSamedi 11 Mars 2017 de 20 h \u00e0 1 h\n\u00a0\nChateau de Montmirail \u00e0 1h30 de Paris , val de loir,\u00a0 en Sarthe\u00a0 ( France)\n\u00a0\nle Bal de Versailles vous accueille en son chateau...","field_date":"Mar 11 2017"},{"title":"Stage de danse baroque \u00e0 Nice (France)","latitude":"43.712706","longitude":"7.293294","body":"La Pavane des Saisons Emmanuel Soulhat (professeur, chor\u00e9graphe) organise son\u00a0 stage de danse baroque \u00e0 Nice pendant les vacances de printemps\nInitiation baroque d\u00e9butants, musiciens bienvenus : 10h => 11h30\nInterm\u00e9diaires et avanc\u00e9s : 10h => 13h\nChor\u00e9graphie : la...","field_date":"Apr 10 2017 to Apr 14 2017"},{"title":"Cesare Negri \u00e0 la Cour de France","latitude":"48.856614","longitude":"2.352222","body":"Cesare Negri \u00e0 la Cour de France\nEn collaboration avec Les Corps Eloquents\nTordiglione nuovo et Brando di Cales\navec Gloria Giordano\n\u00a0\nLe stage sera centr\u00e9 sur la technique, le style et le r\u00e9pertoire de Cesare Negri, \u00e0 travers la reconstruction de...","field_date":"May 7 2017 to May 8 2017"},{"title":"Cours hebdomadaire de danse baroque ","latitude":"48.838112","longitude":"2.308927","body":"Nouveau!! Ouverture d'un cours hebdomadaire les jeudis soirs avec Annabelle Blanc au Centre des arts de la sc\u00e8ne, Paris 15\u00e8me.\nNiveau 1 + 2 : 18h45 - 19h45 : \u00e9chauffement, d\u00e9couverte ou r\u00e9vision des pas de base, mise en espace, petits encha\u00eenements\u2026\nNiveau 2 : 19h45 - 20h15 :...","field_date":"Sep 22 2016 to Jun 29 2017"},{"title":"Stage de danse baroque ","latitude":"48.884298","longitude":"2.354045","body":"Stage de danse baroque pour les personnes ayant d\u00e9j\u00e0 les acquis de base.\nChor\u00e9graphie travaill\u00e9e : \"La Madalena\" , avec musique live !\nAu plaisir de vous retrouver,\nAnnabelle.","field_date":"Apr 11 2017 to Apr 13 2017"},{"title":"Stage de danse baroque Juillet 2017","latitude":"48.853337","longitude":"2.397683","body":"Dernier stage de l'ann\u00e9e avant les vacances d'\u00e9t\u00e9!\nVenez d\u00e9couvrir \"La Carignan\", chor\u00e9graphie de G.L.P\u00e9cour, que vous apprendrez avec Annabelle Blanc, danseuse et claveciniste.\n\u00c9chauffement, travail technique\u2026 et d\u00e9tente gr\u00e2ce au plaisir de danser!","field_date":"Jul 5 2017 to Jul 7 2017"},{"title":"La danse fran\u00e7aise en Allemagne et son enseignement au d\u00e9but du XVIIIe si\u00e8cle","latitude":"48.856614","longitude":"2.352222","body":"Autour du Parfait Ma\u00eetre \u00e0 danser (Rechtschaffener Tantzmeister) de Gottfried Taubert (Leipzig, 1717)\nAppel \u00e0 Communication pour une journ\u00e9e d\u2019\u00e9tude\nL\u2019ann\u00e9e 2017 marquera le tricentenaire de la publication d\u2019une source majeure sur la danse dans le monde...","field_date":"Sep 5 2017 to Sep 8 2017"},{"title":"Der Gro\u00dfe Jane Austen Ball","latitude":"49.302290","longitude":"10.579746","body":"Nachdem die Revolution verstummte und Napoleon Frankreich und Europa \"einte\",erf\u00fcllten rauschende Feste S\u00e4le und Salons, und bei beschwingten T\u00e4nzenund vergn\u00fcglichen Spielen vertrieb man sich die Zeit.Zu kurz war die Zeit zwischen den Kriegen und K\u00e4mpfen,umso fr\u00f6hlicher...","field_date":"Apr 22 2017"},{"title":"Ludus Pastoralis","latitude":"49.238912","longitude":"9.095461","body":"Ludus Pastoralis\nEin barockes Sch\u00e4ferspiel des Jesuitenkollegs in Metz mit komplett erhaltenem Ballett von 1734\nDas Tanzst\u00fcck \u201eLudus Pastoralis\u201c, eines der vielen im\n18. Jh. aufgef\u00fchrten jesuitischen Schulballette, ist das\nbislang einzige in Musik, Choreographie und...","field_date":"Sep 30 2017 to Oct 3 2017"},{"title":"T\u00e4nze der Mozart-Zeit","latitude":"0.000000","longitude":"0.000000","body":"Die Rokoko - Zeit ist eine Zeit des Umbruchs. Dies spiegelt sich auch in der Tanzkultur wieder.\nNeben den gezierten, h\u00f6fischen T\u00e4nzen, deren herausragendster Vertreter das Menuett ist, spielten Gruppen- und Formationst\u00e4nze eine gro\u00dfe Rolle. Sie stammten urspr\u00fcnglich aus England, wurden...","field_date":"Mar 18 2017"},{"title":"Historischer Tanz Montags in Bayreuth","latitude":"49.957379","longitude":"11.590765","body":"Regelm\u00e4\u00dfiger w\u00f6chentlicher \u00dcbungsabend unserer Renaissancetanzguppe jeden Montag mit Ausnahme der Ferien von 19:30 - ca. 21:00\nWir tanzen im Schwerpunkt Sp\u00e4trenaissance (Caroso, Negri) und zur Entspannung Playfords.\nGelegentlich machen wir auch Ausfl\u00fcge in die Hochrenaissance (...","field_date":"Feb 20 2017"},{"title":"H\u00f6fisches Tanzvergn\u00fcgen: Ardente Sole \u2013 Catena d\u2019Amore \u2013 Ballo del Fiore","latitude":"47.706191","longitude":"11.411167","body":"Die erstaunliche Tanzkunst im Italien der sp\u00e4ten Renaissance kennen wir zumeist aus den Balletti von Caroso und Negri, die uns mit ihren ausget\u00fcftelten Choreographien und zum Teil anspruchsvollen Schrittvariationen ein Bild von den hoch-qualitativen Ballt\u00e4nzen der Zeit um 1600 vermitteln. In...","field_date":"Apr 28 2017 to May 1 2017"},{"title":"Ein Picknick mit Emma","latitude":"47.706191","longitude":"11.411167","body":"Picknick mit Emma Englische T\u00e4nze im Regency\nEin Seminar f\u00fcr Einsteiger und Fortgeschrittene 17. - 19. November 2017 in Benediktbeuern mit Markus Lehner, Beate Knobloch, Karin Feneberg, Pia Winkler\n\nBarton Park, Park, 15. Juli 1816Meine liebste...","field_date":"Nov 17 2017 to Nov 19 2017"},{"title":"K\u00f6nigin-Luise-Ball - Empire-Regency-Ball ","latitude":"52.504220","longitude":"13.522590","body":"20 Uhr\nMitten im Tierpark Berlin, dem gr\u00f6\u00dften Landschaftszoo Europas, liegt das Schloss Friedrichsfelde. Die Veranstaltungen im fr\u00fchklassizistischen Schloss Friedrichsfelde sind etwas ganz besonderes.\nDas Schloss Friedrichsfelde entf\u00fchrt in die Zeit von K\u00f6nigin Luise von Preu\u00dfen....","field_date":"May 6 2017, Nov 11 2017"},{"title":"Grand Ball in Berlin","latitude":"52.523480","longitude":"13.411494","body":"Grand Ball in Berlin\n\u00a0\nSociet\u00e0 di Danza\u00a0\nFriday 28.7.2016\n\u00a0\n\u00a0\nBallhaus Pankow, Grabbealle 51-53, Berlin\n\u00a0\n\u00a0\n19th century Grand Ball organised by Societ\u00e0 di Danza,\u00a0\nopen to 19th century dance groups.\n\u00a0\n\u00a0\nDress code: 19th century ball dress.\n\u00a0\n\u00a0\nDance Program:\nSpanish Watz, Caroussel March, French\u00a0...","field_date":"Jul 28 2017"},{"title":"K\u00f6nigin-Luise-Ball - Empire-Regency-Ball ","latitude":"52.504220","longitude":"13.522590","body":"20 Uhr\nMitten im Tierpark Berlin, dem gr\u00f6\u00dften Landschaftszoo Europas, liegt das Schloss Friedrichsfelde. Die Veranstaltungen im fr\u00fchklassizistischen Schloss Friedrichsfelde sind etwas ganz besonderes.\nDas Schloss Friedrichsfelde entf\u00fchrt in die Zeit von K\u00f6nigin Luise von Preu\u00dfen....","field_date":"May 6 2017, Nov 11 2017"},{"title":"Durch die \u201evier Jahreszeiten\u201c mit Barock T\u00e4nzen","latitude":"51.476263","longitude":"7.476477","body":"\u00a0\nZur Musik von Purcell und Marais hat Philippa Waite wundersch\u00f6ne T\u00e4nze f\u00fcr Auff\u00fchrungen choreografiert, dazu geh\u00f6ren Paar- und Gruppent\u00e4nze. Das Wochenende steht unter dem Motto der vier Jahreszeiten, mit Philippa Waite geht es neben der Erarbeitung verschiedener T\u00e4nze auch um die...","field_date":"May 20 2017 to May 21 2017"},{"title":"Barocke Tanzschritte in Country Dances des 17. Und 18. Jahrhunderts","latitude":"51.476263","longitude":"7.476477","body":"\u00a0\nBarocke Tanzschritte in Country Dances des 17. Und 18. Jahrhunderts\nAuf B\u00e4llen dieser Zeit war es \u00fcblich, Country Dances mit barockem Schrittrepertoire zu tanzen. Das bot Gelegenheit, sein t\u00e4nzerisches K\u00f6nnen zu zeigen. Alle, die Lust haben, die eigene...","field_date":"May 19 2017"},{"title":"Internationale Tanzschule f\u00fcr BallTanz mit Grand Ball \"Kaiserliche Weihnacht\" - International Dance School and Grand Ball \"The Imperial Christmas\"","latitude":"51.050958","longitude":"13.733658","body":"Internationale Tanzschule im Advent f\u00fcr Gesellschaftstanz\u00a0 des 19. Jhd. mit Grand Ball \"Kaiserliche Weihnacht\" - Advent International Dance Course and Grand Ball \"The Imperial Christmas\"\nDeutsch: ...","field_date":"Dec 13 2017 to Dec 17 2017"},{"title":"Pfingst - Balltanzkurs in Dresden - Whitsun Social Dancing (19th century dances)","latitude":"51.050958","longitude":"13.733658","body":"Internationale Tanzschule f\u00fcr Gesellschaftstanz aus dem 19. Jahrhundert - Balltanz\nInternational Dance School in social dancing of the 19th century\nDeutsch: http:\/\/creanc....","field_date":"Jun 2 2017 to Jun 5 2017"},{"title":"Die Grundlagen des Barocktanzes - Solotanz: Sarabande pour une femme (1704)","latitude":"50.129473","longitude":"8.643837","body":"Ein Perfekter Einstieg in den barocken Solotanz: In 9 Stunden die Anf\u00e4ngergeeinte \u201eSarabande pour une femme\u201c von Pecour aus dem Jahr 1704, dann noch zum Entspannen am Sonntagnachmittag Contredanse.\nAm Samstag (10:30-13:30 und 14:30-17:30 Uhr), sowie Sonntagvormittag (10:30-13:30 Uhr):...","field_date":"May 6 2017 to May 7 2017"},{"title":"Die Grundlagen des Barocktanzes \u2013 Das Cotillon Wochenende","latitude":"50.101500","longitude":"8.678520","body":"Die franz\u00f6sischen Cotillons erfreuten sich im 18. Jahrhundert gro\u00dfer Beliebtheit. Sie sind neben den englischen Longways die zweite Art von Contredanses. Bei den Cotillons tanzen jeweils zwei oder vier Paare in einer Quadrataufstellung zusammen einen Tanz, der nach dem Strophen \u2013 Refrain Prinzip...","field_date":"Mar 4 2017 to Mar 5 2017"},{"title":"Die Grundlagen des Barocktanzes - T\u00e4nze von Pierre Dubreil","latitude":"50.101500","longitude":"8.678520","body":"Der Tanzmeister des M\u00fcnchner Hofs Pierre Dubreil hat uns 17 Contredanses und 4 Solopaart\u00e4nze aus dem fr\u00fchen 18ten Jahrhundert hinterlassen. T\u00e4nze aus Deutschland sind f\u00fcr diese Zeit eine extreme Seltenheit und sch\u00f6n sind sie noch dazu \u2013 Grund genug, um seine T\u00e4nze wiederzubeleben.\nAm...","field_date":"Jun 11 2017"},{"title":"T\u00e4nze der Jane Austen Zeit","latitude":"50.129473","longitude":"8.643837","body":"In den Romanen und Romanverfilmungen der britischen Autorin Jane Austen (1775-1817) wird gerne getanzt. Dies ist f\u00fcr viele der Erstkontakt mit T\u00e4nzen des 18ten Jahrhunderts und eine Inspiration, selbst einmal tanzend in die Rolle von Lizzie oder Mr. Darcy zu schl\u00fcpfen.\nAm Samstag 10:30-13...","field_date":"Apr 1 2017"},{"title":"Die Grundlagen des Barocktanzes - Menuett und was Jane nicht tanzte (aber trotzdem Spa\u00df macht)","latitude":"50.129473","longitude":"8.643837","body":"In den Romanen und Romanverfilmungen der britischen Autorin Jane Austen (1775-1817) wird gerne getanzt. Dies ist f\u00fcr viele der Erstkontakt mit T\u00e4nzen des 18ten Jahrhunderts und eine Inspiration, selbst einmal tanzend in die Rolle von Lizzie oder Mr. Darcy zu schl\u00fcpfen.\nAm...","field_date":"Apr 2 2017"},{"title":"Die Grundlagen des Barocktanzes - Solopaartanz: Gigue de Roland","latitude":"50.117830","longitude":"8.637340","body":"Dieses Wochenende steht ganz im Zeichen der Gigue \u2013 es wird anstrengend werden, und wir werden viel h\u00fcpfen!\nAm Samstag (10:30-13:30 und 14:30-17:30 Uhr): Gigue \u00e0 deux (1700)Die \u201eGigue a deux\u201c (auch \u201eGigue de Roland\u201c genannt), die Feuillet 1700 ver\u00f6ffentlichte, ist...","field_date":"Jul 1 2017 to Jul 2 2017"},{"title":"Historisches Tanzen mit der SCA und Live Musik","latitude":"50.446895","longitude":"8.063188","body":"Wir tanzen von 11.30 bis 16 Uhr . Kostenbeitrag EUR 5 f\u00fcr Lehrer und Musiker \"Die Zeitreisenden\"). Wir tanzen vor allem T\u00e4nze aus dem Gresley Manuskript (England, ca. 1490), den Inns of Court (England, ca 1600), dem Italien den 15. Jahrhundert (Domenico) und vermischtes aus vor-1650. Mehr Infos...","field_date":"Jul 22 2017"},{"title":"Historisch Tanzen im Westerwald - mit der SCA!","latitude":"50.446895","longitude":"8.063188","body":"Wir tanzen von 11 bis 16 Uhr im Scheunencafe und werden dabei live begleitet von den Zeitreisenden auf ihren historischen Instrumenten.\u00a0 Unser Repertoire besteht vor allem aus T\u00e4nzen aus dem Gresley Manuskript (England, ca. 1490), den Inns of Court (England, ca. 1600), sowie des Italiens im 15....","field_date":"Mar 11 2017"},{"title":"Historisches Tanzen mit der SCA ","latitude":"50.446895","longitude":"8.063188","body":"\u00a0\n\n\n\n\n\n\n\nWir tanzen von 11 bis 16 Uhr im Scheunencafe und werden dabei live begleitet von den Zeitreisenden auf ihren historischen Instrumenten.\u00a0 Unser Repertoire besteht vor allem aus T\u00e4nzen aus dem Gresley Manuskript (England, ca. 1490), den Inns of Court (England, ca. 1600), sowie des...","field_date":"Mar 11 2017"},{"title":"Fr\u00fchlingsball 2017","latitude":"53.548509","longitude":"9.936453","body":"Dresscode: Barock\/Rokoko\nEintritt 65 Euro, unter 18 Jahre: 32 EuroEinlass ab 18:00 Uhr, Beginn 19:00 Uhr\nBegrenzte Umziehm\u00f6glichkeit vor Ort\nTanzliste: (wird fortgesetzt)\nZephirs and Flora (Playford 1718)Les Fleurs du Printemps (Gallini 1770)The...","field_date":"Apr 30 2017"},{"title":"Les Fleurs du Printemps - Barocktanz in den Mai ","latitude":"53.548509","longitude":"9.936453","body":"\u00a0\n\n\n\nIn diesem Jahr veranstalten wir einen Tanz in den Mai mit T\u00e4nzen aus dem 18. Jahrhundert im gro\u00dfen Saal der Alfred-Schnittke-Akademie in Hamburg. Dazu spielt das Ensemble \"Les heureux moments\".\n\u00a0\nKleidung:...","field_date":"Apr 30 2017"},{"title":"Jaymes Welt der Contredanses 1717","latitude":"49.408066","longitude":"8.706935","body":"Tanzkurs zum 300. Jahrestag von Ernest August Jaymes Rec\u00fceils de Contre Dances:\n\u00a0\nW\u00e4hrend Gottfried Taubert vor 300 Jahren in\nLeipzig seinen monumentalen Rechtschaffenen\nTantzmeister zu Druck brachte, verfa\u00dfte in\nWolfenb\u00fcttel Ernest August Jayme, Tanzmeister\ndes Herzogs...","field_date":"Jul 22 2017 to Jul 23 2017"},{"title":"Barocker Herbstball auf Schloss Hohenprie\u00dfnitz","latitude":"51.530807","longitude":"12.597185","body":"Liebe Freunde.\nWir planen am Sonnabend, den 4. November 2017 einen barocken Herbstball auf Schloss Hohenprie\u00dfnitz zu zelibrieren.\nDas Schloss Hohenprie\u00dfnitz wurde 1699 als barocke Anlage erbaut. Als solche ist sie in wesentlichen Teilen auch heute noch erhalten.\nWir haben die...","field_date":"Nov 4 2017"},{"title":"Das Casseler Tanzalbum","latitude":"51.303100","longitude":"9.437300","body":"\"Das vor mehr als 100 Jahren erstmalig erschienene \u201eCasseler Tanz-Album. 12 Originalt\u00e4nze in leichter Spielart mit humoristischem Text\u201c ertanzt die ganze Stadt Kassel. Beginnend mit einer Polonaise \u201eAuf dem Friedrichsplatze\u201c \u00fcber eine Mulang-Polka und Westend-Mazurka f\u00fchrt uns das Album bis hin...","field_date":"Mar 25 2017 to Mar 26 2017"},{"title":"Gottfried Tauberts \u201eRechtschaffener Tantzmeister\u201c (Leipzig 1717): Kontexte \u2013 Lekt\u00fcren \u2013 Praktiken","latitude":"51.340970","longitude":"12.379666","body":"Einladung und Call for Papers zum Internationalen Symposium\u00a0vom 20. bis 23. September 2017 im Musikinstrumentenmuseum der Universit\u00e4t Leipzig veranstaltet vom Institut f\u00fcr Theaterwissenschaft der Universit\u00e4t Leipzig\n\nIm Jahr 2017 j\u00e4hrt sich zum 300. Mal die...","field_date":"Sep 20 2017 to Sep 23 2017"},{"title":"Le Vieux Canarye","latitude":"48.909452","longitude":"9.208605","body":"Le Vieux Canarye\nvom 22.-23.April 2017\nin der GemeindehalleLudwigsburg-Hoheneck\nmit\nKaj Syleg\u00e5rd...","field_date":"Apr 22 2017 to Apr 23 2017"},{"title":"Alta Carretta","latitude":"48.909452","longitude":"9.208605","body":"\"Alta Carretta\"\nIn diesem Kurs machen wir einen Ausflug zu Livio Lupis \u201eLibro di Galgiarda \u2026\u201c von 1607 und tanzen sein einziges \u00fcberliefertes Balletto \u201eAlta Carretta\u201c, das zu der bekannten und beliebten Musik des \u201eBallo del Gran Duca\u201c choreographiert wurde, welche zu dieser Zeit\u00a0 ein \u201eHit...","field_date":"Nov 11 2017 to Nov 12 2017"},{"title":"24th Summer School of Baroque Dance Meisenheim","latitude":"49.708728","longitude":"7.673114","body":"24. Meisenheimer BarockTanzWoche Leitung: Ingo G\u00fcnther und Barbara Zech-G\u00fcnther Die diesj\u00e4hrige SummerSchool geht von Samstag, 22.7.2017 (Anreisetag) bis Samstag, 29.7.2017 (Abreisetag). \u00d6ffentl. Auff\u00fchrung vorauss. am Freitag, 28.7.2017 Programm (\u00c4nderungen vorbehalten): Gruppe I (fortgeschr....","field_date":"Jul 22 2017 to Jul 29 2017"},{"title":"BAL RENAISSANCE - DANSE MEDIEVALE","latitude":"48.168810","longitude":"11.458310","body":"Historisches Tanzfest mit Okzitanis\nHerbei edle Damen und hochwohlgeborene Herren!Herbei Volk! Tanzet, tafelt und erfreuet Eure Gem\u00fcter!\nEin festlicher Abend mit T\u00e4nzen aus Mittelalter und Renaissance. Zum Tanz spielt das Duo...","field_date":"Feb 25 2017"},{"title":"Workshop Barocktanz","latitude":"48.096370","longitude":"11.512150","body":"Versailles, die gl\u00e4nzende Residenz des Sonnenk\u00f6nigs Ludwig XIV., - mit seinen endlosen Kolonnaden, kerzenerleuchteten Zimmerfluchten und spiegelgeschm\u00fcckten Prachts\u00e4len die Verk\u00f6rperung des Barocks schlechthin - w\u00e4re ohne Musik und Tanz nicht vorstellbar gewesen. Kein prunkvolles Fest, keine...","field_date":"Mar 18 2017"},{"title":"BAL RENAISSANCE - DANSE MEDIEVALE","latitude":"48.168810","longitude":"11.458310","body":"Historisches Tanzfest mit Okzitanis\nHerbei edle Damen und hochwohlgeborene Herren!Herbei Volk! Tanzet, tafelt und erfreuet Eure Gem\u00fcter!\nEin festlicher Abend mit T\u00e4nzen aus Mittelalter und Renaissance. Zum Tanz spielt das Duo...","field_date":"May 20 2017"},{"title":"Workshop Barocktanz","latitude":"48.096370","longitude":"11.512150","body":"Versailles, die gl\u00e4nzende Residenz des Sonnenk\u00f6nigs Ludwig XIV., - mit seinen endlosen Kolonnaden, kerzenerleuchteten Zimmerfluchten und spiegelgeschm\u00fcckten Prachts\u00e4len die Verk\u00f6rperung des Barocks schlechthin - w\u00e4re ohne Musik und Tanz nicht vorstellbar gewesen. Kein prunkvolles Fest, keine...","field_date":"May 13 2017"},{"title":"Workshop Barocktanz","latitude":"48.096370","longitude":"11.512150","body":"Versailles, die gl\u00e4nzende Residenz des Sonnenk\u00f6nigs Ludwig XIV., - mit seinen endlosen Kolonnaden, kerzenerleuchteten Zimmerfluchten und spiegelgeschm\u00fcckten Prachts\u00e4len die Verk\u00f6rperung des Barocks schlechthin - w\u00e4re ohne Musik und Tanz nicht vorstellbar gewesen. Kein prunkvolles Fest, keine...","field_date":"Jul 15 2017"},{"title":"Tanz durch die Jahrhunderte","latitude":"48.193961","longitude":"11.618796","body":"Wir sind eine tanz- und kost\u00fcmbegeisterte Gruppe, im Jahr 2000 gegr\u00fcndet von Lilo Grimm-Cresswell. Wir veranstalten w\u00f6chentliche \u00dcbungsabende und bieten Auftritte in historischen Kost\u00fcmen an. Dabei befassen wir uns mit verschiedenen Epochen: Renaissance, Barock, Rokoko und 19. Jahrhundert....","field_date":"Apr 7 2016 to Apr 30 2018"},{"title":"Historisches Tanzen mit der SCA","latitude":"50.238801","longitude":"8.866407","body":"Wir tanzen von 11.30 bis 16 Uhr . Kostenbeitrag EUR 8 f\u00fcr den Saal. Wir tanzen vor allem T\u00e4nze aus dem Gresley Manuskript (England, ca. 1490), den Inns of Court (England, ca 1600), dem Italien den 15. Jahrhundert (Domenico) und vermischtes aus vor-1650. Mehr Infos findet ihr auf meinem Profil...","field_date":"Jun 3 2017"},{"title":"Historisches Tanzen mit der SCA","latitude":"50.238801","longitude":"8.866407","body":"Wir tanzen von 11.30 bis 16 Uhr . Kostenbeitrag EUR 8 f\u00fcr den Saal. Wir tanzen vor allem T\u00e4nze aus dem Gresley Manuskript (England, ca. 1490), den Inns of Court (England, ca 1600), dem Italien den 15. Jahrhundert (Domenico) und vermischtes aus vor-1650. Mehr Infos findet ihr auf meinem Profil...","field_date":"Apr 8 2017"},{"title":"Der Tugendk\u00f6nig von N\u00fcrnberg","latitude":"49.455823","longitude":"11.080723","body":"Der Pfarrer von St. Lorenz ist au\u00dfer sich: N\u00fcrnberg ist\u00a0ein einziges Sodom und Gomorrha! Besonders das\u00a0Weibsvolk schl\u00e4gt \u00fcber alle Strenge. Zucht und Ordnung tun Not! Die Stadt braucht eine Tugendk\u00f6nigin\u00a0als leuchtendes Vorbild\u00a0 - doch keine scheint w\u00fcrdig.\u00a0Wer soll die Krone tragen?Da...","field_date":"Jul 30 2017"},{"title":"Der Tugendk\u00f6nig von N\u00fcrnberg","latitude":"49.455823","longitude":"11.080723","body":"Der Pfarrer von St. Lorenz ist au\u00dfer sich: N\u00fcrnberg ist\u00a0ein einziges Sodom und Gomorrha! Besonders das\u00a0Weibsvolk schl\u00e4gt \u00fcber alle Strenge. Zucht und Ordnung tun Not! Die Stadt braucht eine Tugendk\u00f6nigin\u00a0als leuchtendes Vorbild\u00a0 - doch keine scheint w\u00fcrdig.\u00a0Wer soll die Krone tragen?Da...","field_date":"Aug 2 2017"},{"title":"Der Tugendk\u00f6nig von N\u00fcrnberg","latitude":"49.455823","longitude":"11.080723","body":"Der Pfarrer von St. Lorenz ist au\u00dfer sich: N\u00fcrnberg ist\u00a0ein einziges Sodom und Gomorrha! Besonders das\u00a0Weibsvolk schl\u00e4gt \u00fcber alle Strenge. Zucht und Ordnung tun Not! Die Stadt braucht eine Tugendk\u00f6nigin\u00a0als leuchtendes Vorbild\u00a0 - doch keine scheint w\u00fcrdig.\u00a0Wer soll die Krone tragen?Da...","field_date":"Jul 23 2017"},{"title":"Der Tugendk\u00f6nig von N\u00fcrnberg","latitude":"49.455823","longitude":"11.080723","body":"Der Pfarrer von St. Lorenz ist au\u00dfer sich: N\u00fcrnberg ist\u00a0ein einziges Sodom und Gomorrha! Besonders das\u00a0Weibsvolk schl\u00e4gt \u00fcber alle Strenge. Zucht und Ordnung tun Not! Die Stadt braucht eine Tugendk\u00f6nigin\u00a0als leuchtendes Vorbild\u00a0 - doch keine scheint w\u00fcrdig.\u00a0Wer soll die Krone tragen?Da...","field_date":"Jul 26 2017"},{"title":"21. Sommertanzkurs mit Lieven Baert, Oberwesel \/ Rhein","latitude":"50.107424","longitude":"7.726602","body":"In diesem Sommertanzkurs bieten wir einen Potpourri von T\u00e4nzen der Zeit zwischen 1780 und 1870 an. Lieven Baert hat dazu eine Auswahl von T\u00e4nzen aus wenig bekannten Quellen zusammengestellt. Auf dem Programm stehen Quadrillen, Contredanses, Ecossaisen, Douzes, Cotillons und Walzer. Der Tanzkurs...","field_date":"Aug 6 2017 to Aug 13 2017"},{"title":"Gregorio Lambranzi 1716: \u201eDie vier Nasen-Schneutzer\u201c  ","latitude":"52.469920","longitude":"12.996576","body":"\u00a0\nWorkshop im Rahmen der 7. Internationalen Barocktanztage in Potsdam\n\u00a0\nBarocktanz \u201eDie vier Nasen-Schneutzer\u201c\u00a0\u00a0\u00a0\u00a0\u00a0\u00a0\u00a0\u00a0\u00a0\u00a0\u00a0\u00a0\u00a0\u00a0\u00a0\u00a0\u00a0\u00a0\u00a0\u00a0\u00a0\u00a0\u00a0\u00a0\u00a0\u00a0\u00a0\u00a0\u00a0\u00a0\u00a0\u00a0\u00a0\u00a0\u00a0\u00a0\u00a0\u00a0\u00a0\u00a0\u00a0\u00a0\u00a0\u00a0\u00a0 \nChoreographie und musikalischer Satz: Barbara Zech-G\u00fcnther\/Berlin aus...","field_date":"Jun 15 2017"},{"title":"Choreographie zum Mittsommernachtsball: Bour\u00e9e \u00e0 trois von Bach","latitude":"52.469920","longitude":"12.996576","body":"Workshop im Rahmen der 7. Internationalen Barocktanztage in Potsdam\nunter der Leitung von\u00a0 Ingo G\u00fcnther \/ Berlin\nIn diesem Workshop werden wir an einer sehr schwungvollen Bour\u00e9e f\u00fcr 3 T\u00e4nzerInnen arbeiten. Das Schrittmaterial ist unkompliziert,...","field_date":"Jun 14 2017"},{"title":"Theaterspielen wie im Barock - Commedia dell\u00b4arte (auch f\u00fcr Anf\u00e4nger)","latitude":"52.469920","longitude":"12.996576","body":"\u00a0\nWorkshop im Rahmen der 7. Internationalen Barocktanztage in Potsdam\n\u00a0\nTheaterspielen wie im Barock - Commedia dell\u00b4Arte\u00a0 (f\u00fcr Anf\u00e4nger)\n\u00a0\nDer Commedia dell'arte ist eine gro\u00dfartige M\u00f6glichkeit, \u00fcber uns u lachen. In Figuren...","field_date":"Jun 16 2017"},{"title":"Theater in der Barockzeit f\u00fcr Fortgeschrittene","latitude":"52.469920","longitude":"12.996576","body":"\u00a0\nWorkshop im Rahmen der 7. Internationalen Barocktanztage in Potsdam\nIn diesem Workshop nehmen wir zwei gro\u00dfe \u201eLiebeszenen\u201c von meinem Lieblingsdramatiker Moli\u00e8re ins Visier. Als Beispiel werden sich die Figuren der Commediadell\u00b4arte wunderbar eignen. Mit den...","field_date":"Jun 15 2017"}]